{
 "2": {
  "name": "Medellín",
  "lat": 6.22793,
  "lon": -75.57527,
  "n": 127585
 },
 "1": {
  "name": "Bogotá",
  "lat": 4.67103,
  "lon": -74.06891,
  "n": 100143
 },
 "5": {
  "name": "Cali",
  "lat": 3.41155,
  "lon": -76.52863,
  "n": 63324
 },
 "26": {
  "name": "Usaquén",
  "lat": 4.70736,
  "lon": -74.03905,
  "n": 58693
 },
 "14": {
  "name": "Barranquilla",
  "lat": 11.00346,
  "lon": -74.81887,
  "n": 52558
 },
 "61": {
  "name": "Suba",
  "lat": 4.73205,
  "lon": -74.06532,
  "n": 46332
 },
 "58": {
  "name": "Envigado",
  "lat": 6.16678,
  "lon": -75.57954,
  "n": 44184
 },
 "7": {
  "name": "Pereira",
  "lat": 4.80675,
  "lon": -75.70805,
  "n": 28464
 },
 "10": {
  "name": "Cartagena",
  "lat": 10.41207,
  "lon": -75.52123,
  "n": 26804
 },
 "9": {
  "name": "Manizales",
  "lat": 5.06162,
  "lon": -75.49749,
  "n": 26327
 },
 "59": {
  "name": "Rionegro",
  "lat": 6.14902,
  "lon": -75.38057,
  "n": 23965
 },
 "49": {
  "name": "Chapinero",
  "lat": 4.667,
  "lon": -74.05382,
  "n": 19816
 },
 "6": {
  "name": "Bucaramanga",
  "lat": 7.11801,
  "lon": -73.11678,
  "n": 19496
 },
 "56": {
  "name": "Bello",
  "lat": 6.33624,
  "lon": -75.55974,
  "n": 15442
 },
 "54": {
  "name": "Teusaquillo",
  "lat": 4.63929,
  "lon": -74.07562,
  "n": 15033
 },
 "15": {
  "name": "Chía",
  "lat": 4.8626,
  "lon": -74.05358,
  "n": 14444
 },
 "57": {
  "name": "Itaguí",
  "lat": 6.17118,
  "lon": -75.6111,
  "n": 14049
 },
 "13": {
  "name": "Cúcuta",
  "lat": 7.89268,
  "lon": -72.49664,
  "n": 10728
 },
 "8": {
  "name": "Armenia",
  "lat": 4.54339,
  "lon": -75.66475,
  "n": 10357
 },
 "51": {
  "name": "Kennedy",
  "lat": 4.63683,
  "lon": -74.14676,
  "n": 9808
 },
 "55": {
  "name": "Engativá",
  "lat": 4.69893,
  "lon": -74.10848,
  "n": 9622
 },
 "12": {
  "name": "Santa Marta",
  "lat": 11.20539,
  "lon": -74.22106,
  "n": 9582
 },
 "53": {
  "name": "Fontibon",
  "lat": 4.66788,
  "lon": -74.13051,
  "n": 8754
 },
 "16": {
  "name": "Cajicá",
  "lat": 4.91867,
  "lon": -74.0258,
  "n": 8662
 },
 "19": {
  "name": "Soacha",
  "lat": 4.58993,
  "lon": -74.21956,
  "n": 7755
 },
 "60": {
  "name": "La estrella",
  "lat": 6.1525,
  "lon": -75.6375,
  "n": 7435
 },
 "62": {
  "name": "Madrid",
  "lat": 4.73315,
  "lon": -74.26806,
  "n": 6290
 },
 "11": {
  "name": "Ibague",
  "lat": 4.43737,
  "lon": -75.19064,
  "n": 6100
 },
 "17": {
  "name": "Mósquera",
  "lat": 4.70664,
  "lon": -74.22967,
  "n": 5814
 },
 "52": {
  "name": "Bosa",
  "lat": 4.62043,
  "lon": -74.18952,
  "n": 4899
 },
 "47": {
  "name": "Santa Barbara",
  "lat": 4.7,
  "lon": -74.04152,
  "n": 4754
 },
 "20": {
  "name": "Zipaquirá",
  "lat": 5.02588,
  "lon": -73.99337,
  "n": 3591
 },
 "23": {
  "name": "Cota",
  "lat": 4.80471,
  "lon": -74.10601,
  "n": 3028
 },
 "18": {
  "name": "La Calera",
  "lat": 4.7192,
  "lon": -73.96908,
  "n": 2770
 },
 "24": {
  "name": "Funza",
  "lat": 4.71767,
  "lon": -74.20631,
  "n": 2726
 },
 "21": {
  "name": "Tocancipá",
  "lat": 4.96594,
  "lon": -73.93318,
  "n": 2533
 },
 "25": {
  "name": "Sopó",
  "lat": 4.90839,
  "lon": -73.96736,
  "n": 1274
 },
 "50": {
  "name": "Usme",
  "lat": 4.507,
  "lon": -74.11465,
  "n": 980
 },
 "22": {
  "name": "Tenjo",
  "lat": 4.86774,
  "lon": -74.14577,
  "n": 781
 },
 "48": {
  "name": "Chico",
  "lat": 4.67861,
  "lon": -74.051,
  "n": 374
 }
}